"시스템키","체험마을명","시도명","시군구명","체험프로그램구분","체험프로그램명","보유시설정보","체험휴양마을면적","체험휴양마을사진","소재지도로명주소","대표자성명","대표전화번호","지정일자","홈페이지주소","관리기관명","위도","경도","데이터기준일자","제공기관코드","제공기관명"
"1752","알토란사과마을","충청남도","예산군","농작물경작체험+건강+전통문화체험+자연생태체험","돼지불고기+사과쨈+사과피자만들기+죽순요리+죽순따기+잔디마당삼겹살파티+시골밥상+사과풍선만들기+사과브리또+미나리요리+사과깍두기+사과따기체험+사과돌나물무침","","","","충청남도 예산군 응봉면 운곡길 81","이정신","","2017-10-24","","충청남도 예산군청","36.65219938","126.779123","2025-01-07","B552149","한국농어촌공사"
"1772","태안별주부마을","충청남도","태안군","농작물경작체험+자연생태체험+만들기체험+전통문화체험","갯벌체험(맛조개잡이)+황토호박고구마캐기+독살체험+방향제만들기+별주부자라빵만들기+취나물채취하기+취나물인절미떡메치기체험+꽃게그물털기체험","","","","충청남도 태안군 남면 별주부길 102","최진우","041-672-3359","2017-10-24","","충청남도 태안군청","36.63273093","126.3035327","2025-01-07","B552149","한국농어촌공사"
"1778","토정마을","충청남도","보령시","기타","눈꽃송이만들기+표고피자만들기+표고버섯체험+쑥개떡만들기+숲체험+숙박(캠핑)+떡메치기+박쥐동굴체험+뻥튀기+숙박(시설물임대)+석고부조색칠하기+눈썰매장","","","","충청남도 보령시 청라면 윗장골길 113","이석태","041-935-3033","2017-10-24","","충청남도 보령시청","36.40209883","126.655503","2025-01-07","B552149","한국농어촌공사"
"1793","친환경까치마을","충청남도","부여군","농작물경작체험+만들기체험+기타","농촌에서한달살기+토종곡물쿠키만들기+현미빵만들기+전통놀이체험+딸기체험+삼색캔들만들기체험+양봉체험+시골밥상체험","","","","충청남도 부여군 초촌면 진호로 2","정화숙","","2017-10-24","","충청남도 부여군청","36.2755734","127.0483609","2025-01-07","B552149","한국농어촌공사"
"1794","칠갑뜨락농촌체험휴양마을","충청남도","청양군","건강+기타","마을걷기여행+치유농업+칠갑호걷기축제+칠갑호둘레길건강걷기체험","","","","충청남도 청양군 대치면 판동길 260","최동원","","2020-10-26","","충청남도 청양군청","36.42378878","126.8686086","2025-01-07","B552149","한국농어촌공사"
"1795","칠갑사니마을","충청남도","청양군","기타","강의실+낚시대+바늘+먹이+수상자전거인승+승마체험(평일)+카약(베스낚시)인승+오리배인승+승마체험(주말)+모터보트인승+고래배인승+거위+잉어+말먹이","","","","충청남도 청양군 대치면 판동길 260","최원영","","2017-10-24","","충청남도 청양군청","36.42378878","126.8686086","2025-01-07","B552149","한국농어촌공사"
"1796","칠갑산산꽃마을","충청남도","청양군","농작물경작체험+기타+건강+만들기체험","김장체험+족욕체험+연잎밥만들기+우렁이잡기+야생화심기체험+압화부채만들기+연필꽂이만들기+알밤줍기체험+알밤줍기+시골밥상체험+수세미만들기체험+꽃차체험(기호음료)+도마인두화체험+매듭인형+새끼꼬기및계란꾸러미만들기+매실청만들기+꽃사탕만들기","","","","충청남도 청양군 대치면 까치내로 1063-1","조만홍","","2017-10-24","","충청남도 청양군청","36.40945277","126.8359558","2025-01-07","B552149","한국농어촌공사"
"1811","초록꿈틀마을","충청남도","서산시","기타+만들기체험","강의+떡도장절편만들기+라이스진저미니버거만들기+쌀겨비누만들기+힐링요가체험+특산물+자연생태체험+자연물드림캐쳐만들기+음식만들기체험+쌀돌공예+쌀그림그리기+쌀강정만들기+떡메치기+두부만들기+농사체험+도농교류센터+된장담그기","","","","충청남도 서산시 음암면 두치로 366-1","조영미","041-668-9900","2017-10-24","","충청남도 서산시청","36.81946125","126.4878517","2025-01-07","B552149","한국농어촌공사"
"1822","천탑마을","충청남도","공주시","농작물경작체험+전통문화체험+건강+만들기체험","단순방문객+편백나무숲해먹타고하늘보기+편백나무숲오수체험+편백나무숲명상체험+토종물고기관찰체험+짚플공예체험+뗏목타기체험+맷돌커피(홍보부스체험)+숲속바베큐체험+옥수수따먹고계곡에서힐링+알밤줍기+돌탑쌓기체험","","","","충청남도 공주시 사곡면 부곡산성로 139","주규용","041-841-6521","2017-10-24","","충청남도 공주시청","36.5899606","127.0195112","2025-01-07","B552149","한국농어촌공사"
"1836","진산애행복누리마을","충청남도","금산군","농작물경작체험+전통문화체험+만들기체험","두부만들기체험+아로니아체험+향초만들기체험+역사탐방+스포츠프로그램+딸기체험+문화탐방+바리스타체험+민속놀이체험","","","","충청남도 금산군 진산면 대둔산로 322","이지안","","2018-11-26","","충청남도 금산군청","36.13957504","127.3645814","2025-01-07","B552149","한국농어촌공사"
"1845","조개부리마을","충청남도","태안군","기타","갯벌체험+함초인절미체험+함초비누만들기+농산물수확체험+망둥어낚시+연만들기체험+바다낚시","","","","충청남도 태안군 고남면 옷점길 122-13","이상일","","2017-10-24","","충청남도 태안군청","36.41507472","126.3990973","2025-01-07","B552149","한국농어촌공사"
"1848","조팝꽃피는마을","충청남도","금산군","농작물경작체험+자연생태체험+만들기체험+전통문화체험","걷기명상+두부만들기+물놀이체험+생태체험+인성교육+인삼장뇌삼체험+인삼수확+인삼꽃병만들기(체험인성)+인삼김치만들기체험+음식명상(인성교육)+염색체험+약초주머니만들기+식교육명상인성체험+홍삼파자만들기+캠프파이어+참쌀모치체험+전통놀이체험+산부추칼국수만들기체험+떡갈비한상만들기+도자기만들기+공예만들기체험+농산물체험+농산물체험","","","","충청남도 금산군 제원면 길곡길 8","최기림","041-753-5382","2017-10-24","","충청남도 금산군청","36.15900681","127.5641828","2025-01-07","B552149","한국농어촌공사"
"1863","적벽강마을","충청남도","금산군","농작물경작체험+만들기체험+자연생태체험+건강+전통문화체험+기타","곤충만들기+농사체험+도자기+떡매+두부+모스이끼화분만들기+황토염색+홍삼비누만들기+한방향첩+캠핑+캠프파이어+앰프대여+쑥개떡만들기+시골밥상+수생동식물채집+새집만들기+백숙만들기+밧줄놀이+물놀이+목공체험+캔들아트+정글밥상+전통간식만들기+전래놀이+인삼튀김+인삼캐기+인삼빵만들기+인삼병만들기+야유회+레프팅+땟목타기투어+농촌에서살아보고농촌체험+깻잎부각튀김+곶감만들기+김장체험","","","","충청남도 금산군 부리면 수통1길 17","한명환","041-751-7142","2017-10-24","","충청남도 금산군청","36.05063707","127.5914414","2025-01-07","B552149","한국농어촌공사"
"1864","적벽강비밀의섬농촌체험휴양마을","충청남도","금산군","만들기체험+자연생태체험+건강+기타","목공예체험+핸드드립커피체험+카약+스탠드업패들보드+적벽강생태탐사+적벽강생태체험(박일)+우드펜던트만들기+새싹삼심기+반딧불탐사","","","","충청남도 금산군 부리면 농원길 163-15","이인자","063-322-0019","2021-10-27","","충청남도 금산군청","36.03823127","127.6221226","2025-01-07","B552149","한국농어촌공사"
"1878","장곡마을","충청남도","청양군","농작물경작체험+자연생태체험+전통문화체험+만들기체험","공예품체험+달려라깡통열차+산나물채취+쑥개떡만들기+아니골습체험+칠갑산등산+줄팽이만들기+장승팔찌만들기+장승팔찌+장승공원+장곡사탐방+알밤줍기+아니골숲거닐기+상황양갱만들기+두부만들기+농산물수확하기+구기자고추장떡+구기자따기및효소만들기","","","","충청남도 청양군 대치면 장곡길 103-7","이정이","041-943-8866","2017-10-24","","충청남도 청양군청","36.40977838","126.8489505","2025-01-07","B552149","한국농어촌공사"
"1881","장선리마을공동체","충청남도","서천군","만들기체험+자연생태체험","생태체험+아로니아청만들기","","","","충청남도 서천군 마서면 옥도로498번길 27","이규영","041-953-6971","2020-03-25","","충청남도 서천군청","36.04578221","126.7183737","2025-01-07","B552149","한국농어촌공사"
"1883","장수마을","충청남도","아산시","농작물경작체험+만들기체험+기타","고구마+향낭주머니만들기+캘리등만들기+치유프로그램(향기치료)+치유프로그램(공예)+재생밴드키링만들기+인절미체험+옥수수따기체험+세미나실+블루베리체험+미술치유프로그램+떡메치기+교육대관료(종일)+고소함가득기름짜기+고구마수확체험","","","","충청남도 아산시 음봉면 월랑길 17","이세종","","2023-03-10","","충청남도 아산시청","36.84331162","127.0799239","2025-01-07","B552149","한국농어촌공사"
"1887","장익는마을","충청남도","공주시","농작물경작체험+기타","가을추수체험+하지감자캐기체험+포도따기체험+고추따기+무우뽑기+새싹심기+시설임대사용료+농촌일손돕기+고구마캐기체험","","","","충청남도 공주시 이인면 선근리1길 34","이인희","","2017-10-24","","충청남도 공주시청","36.37964332","127.0694028","2025-01-07","B552149","한국농어촌공사"
"1918","은골구기자마을","충청남도","청양군","농작물경작체험+만들기체험+전통문화체험","고사리꺽기+활만들기+양갱/제리만들기+알밤줍기+수제소시지/어묵만들기+상호지지구조만들기+산마늘수확체험+산딸기수확체험+바람떡만들기+목공체험+구기자칼국수만들기+나만의수제어간장만들기+다도체험+떡만들기+다식만들기+구기자따기","","","","충청남도 청양군 비봉면 은골길 119","장재규","","2017-10-24","","충청남도 청양군청","36.52073082","126.7984837","2025-01-07","B552149","한국농어촌공사"
"1926","이색체험마을","충청남도","서천군","만들기체험+기타","경옥고+공진단만들기체험+떡차만들기체험+모시송편빚기체험+버섯울금밥식사체험+황태해장국식사체험+연입밥식사체험+연근비빔밥식사체험+소곡주빚기체험+버섯불고기밥식사체험+모시베틀짜기체험+다육이아트만들기체험+기능성소금만들기체험+기능성청만들기체험+낙지젓갈비빔밥식사체험","","","","충청남도 서천군 기산면 화출길42번길 2-10","이선규","041-951-8891","2020-03-25","","충청남도 서천군청","36.07582661","126.7682961","2025-01-07","B552149","한국농어촌공사"
"1935","황산벌참살이마을","충청남도","논산시","기타+전통문화체험","고추따기+인절미체험+전통제례체험+전통주담두기+저장담구기+된장담구기+고추장담구기+김장체험","","","","충청남도 논산시 연산면 고정1길 34-15","김완순","","2017-10-24","","충청남도 논산시청","36.19827627","127.1862415","2025-01-07","B552149","한국농어촌공사"
"1936","황새마을","충청남도","서천군","기타+만들기체험","대보름축제+허수아비만들기+친환경화분만들기+솟대만들기+염색체험+친환경우렁잡기+친환경방울토마토따기","","","","충청남도 서천군 마서면 계동길46번길 36","구영원","","2017-10-24","","충청남도 서천군청","36.06374323","126.6999211","2025-01-07","B552149","한국농어촌공사"
"1946","회포마을","충청남도","서산시","농작물경작체험+만들기체험+기타","감자캐기+흑미인절미만들기+호박피자만들기+호박팬케익만들기+호박크림만들기+호박크림마카롱+호박칼국수만들기+자원봉사+워크샵및세미나+옥수수따기+시골밥상+손모내기+서산쪽마늘캐기+벼농사체험+미니호박디스플레이+모종심기+호박전만들기+호박잼만들기+호박요리체험+호박등만들기+호박게꾹지+커피박키링만들기+천연염색스카프+천연염색손수건+전통놀이체험+농특산물판매하기+단체숙박+민박+마을견학+맷돌호박고추장kg+맷돌호박고추장g+고구마캐기체험","","","","충청남도 서산시 대산읍 운산나루터길 37-16","최근명","070-8802-6635","2017-10-24","","충청남도 서산시청","36.931174","126.465444","2025-01-07","B552149","한국농어촌공사"
"1961","황골장미마을","충청남도","부여군","농작물경작체험","느타리농장체험","","","","충청남도 부여군 양화면 양화동로 250-32","이경훈","","2023-04-21","","충청남도 부여군청","36.10608082","126.8680403","2025-01-07","B552149","한국농어촌공사"
"1974","햇빛촌바랑산마을","충청남도","논산시","기타+만들기체험","감말랭이쵸크릿만들기+비누만들기+바랑산등산+바람개비만들기+명자차또는모개차체험+머위퀘사디아+매실따기+떡매치기+딸기뽕듀+두부만들기+호떡만들기+윤경체험+영화관람+영실체험+경옥체험+고구마캐기체험+곶감?A기+단호박요리체험+김치담그기+감자캐기체험","","","","충청남도 논산시 양촌면 바랑산2길 51","전영실","","2017-10-24","","충청남도 논산시청","36.12997775","127.2747408","2025-01-07","B552149","한국농어촌공사"
"1977","행복마을","충청남도","서천군","기타+전통문화체험+건강+자연생태체험+만들기체험","고구마캐기+풍등날리기+인절미만들기+쑥떡만들기+숙박+김장체험+김치담그기+넝쿨강낭콩따기+솔방울공예+손두부만들기+기타","","","","충청남도 서천군 비인면 남당길63번길 23-6","정순자","041-952-0536","2017-10-24","","충청남도 서천군청","36.1712888","126.6158762","2025-01-07","B552149","한국농어촌공사"
"1995","합덕연지마을","충청남도","당진시","농작물경작체험+건강+전통문화체험+만들기체험","계란꾸러미+석고방향제+연자육거품세정제+허수아비+화과자+이엉역기(새끼꼬기)+연잎밥+먹거리+계절별꽃심기+꽃(수국대)+다육이를품은연자방","","","","충청남도 당진시 합덕읍 신촌로 6","이지현","041-362-5509","2019-07-11","","충청남도 당진시청","36.79411067","126.7875788","2025-01-07","B552149","한국농어촌공사"
"2004","해비알마을","충청남도","태안군","기타","올레길트래킹+효소찜질방","","","","충청남도 태안군 안면읍 해안관광로 44-13","서동철","","2017-10-24","","충청남도 태안군청","36.50831515","126.3384428","2025-01-07","B552149","한국농어촌공사"
"2015","한다리마을","충청남도","서산시","전통문화체험+기타","전통문화체험+전통혼례","","","","충청남도 서산시 음암면 한다리길 34","조덕순","","2019-10-30","","충청남도 서산시청","36.73986105","126.5192923","2025-01-07","B552149","한국농어촌공사"
"2020","한방웰니스마을","충청남도","공주시","농작물경작체험+건강+자연생태체험+전통문화체험","가을열매체험+사우나+자전거라이딩+족욕체험+캠핑+체육활동+전통놀이체험+쑥뜸+부황체험+물놀이","","","","충청남도 공주시 우성면 무성산로 296","방극태","","2021-04-01","","충청남도 공주시청","36.50121486","127.088538","2025-01-07","B552149","한국농어촌공사"
"2021","하누리마을","충청남도","홍성군","농작물경작체험+기타","고추/감자심기(주말농장)+수련회/캠프파이어+아로니아청만들기+유기농사모둠체험+유정란가족그림그리기+토종닭서리하기+친환경과수체험+인절미만들기+유기농콩와플만들기+유기농먹거리체험+아로니아식초만들기+손모심기+고추/양파수확+공작쑥갯떡만들기","","","","충청남도 홍성군 광천읍 매현1길 2","박분이","041-642-0262","2017-10-24","","충청남도 홍성군청","36.52226833","126.6336432","2025-01-07","B552149","한국농어촌공사"
"2029","하리철새마을","충청남도","홍성군","농작물경작체험+자연생태체험+건강+만들기체험","갯벌체험+무지개물고기만들기체험+바다생태체험+배타기체험+해상낚시체험+풍어기원만선깃발만들기+페트병바다상어놀이감만들기+천수만어탁체험+자연속별빛캠핑+업싸이클링체험+소라화분만들기+생강캐기체험+생강차만들기체험+바다캔들만들기+물고기가죽키링만들기+농산물수확체험+갯벌퍼포먼스+견학및교육+나는천수만바다지킴이~","","","","충청남도 홍성군 서부면 남당항로 849","윤경진","041-634-6867","2017-10-24","","충청남도 홍성군청","36.58864404","126.4577271","2025-01-07","B552149","한국농어촌공사"
"2039","평매녹색농촌휴양마을","충청남도","논산시","농작물경작체험+만들기체험","계절별잼+청만들기체험+양말목공에+토탈공예체험+화분체험+풍선아트+염색체험","","","","충청남도 논산시 가야곡면 산노3길 65","조옥현","","2017-10-24","","충청남도 논산시청","36.16822792","127.181257","2025-01-07","B552149","한국농어촌공사"
"2045","포전마을","충청남도","논산시","농작물경작체험+자연생태체험+건강+기타+전통문화체험+만들기체험","고구마수확체험+포도수확+트랙터타기+토마토수확체험+텃밭체험+카네이션화분양말목+전통연만들기+양말목딸기화분만들기+스칸디아모스리스만들기+숙박+손수건꽃물들이기+손맛김치담기+새콤달콤딸기화분만들기+사과따기체험+떡메치기체험+딸기청만들기체험+대나무물총만들기+딸기비누만들기+딸기샌드위치+딸기주스+딸기잼만들기+딸기수확체험+공기정화식물양말목화분만들기","","","","충청남도 논산시 성동면 우곤1길 69","이향순","041-732-5508","2017-10-24","","충청남도 논산시청","36.19817516","126.9962657","2025-01-07","B552149","한국농어촌공사"
"2046","푸레기마을","충청남도","당진시","농작물경작체험+만들기체험+건강+자연생태체험+기타","갯벌체험+머핀만들기체험+쑥개떡만들기+한지손거울만들기+피자만들기+텃밭체험+쿠키만들기+치유체험+천연항균탈취제체험+천연비누만들기체험+천연버물리만들기체험+천연모기기피제만들기체험+조물락비누만들기+약쑥핸드워시(거품비누)+약쑥주방세제만들기+약쑥버블바(입욕제)만들기+송편만들기체험+두부샐러드만들기+김장체험+꼬맹이주먹밥체험+두부만들기+나만의화분만들기체험","","","","충청남도 당진시 석문면 초락1로 147","윤용숙","041-353-5008","2017-10-24","","충청남도 당진시청","36.99294154","126.5024807","2025-01-07","B552149","한국농어촌공사"
"2062","문당환경농업마을","충청남도","홍성군","농작물경작체험+자연생태체험+만들기체험+전통문화체험","감자캐기+옥수수따기체험+오색복비만들기+오리입식하기+오리쌀축제+쌀빵만들기+쌀강정만들기+숲체험하기+송편만들기+선진지권역소개+트랙터마차타기+컵케익만들기+캠프파이어+친환경시골밥상+친환경나물캐기+천연화장품만들기+천연비누만들기+종합체험+조물조물치유떡만들기+흑미염색하기+패키지사업+선진지강의+불루베리쨈만들기+벼수확체험+물중요성체험+모심기체험꾸러미+메뚜기잡기+떡메치기+땅콩캐기+딸기따기체험+대안에너지체험+논생물조사+김장체험+곤충채집하기+고구마캐기체험","","","","충청남도 홍성군 홍동면 문당길 141","주형로","041-631-3538","2017-10-24","","충청남도 홍성군청","36.535428","126.702154","2025-01-07","B552149","한국농어촌공사"
"2069","물버들마을","충청남도","서천군","농작물경작체험+건강+전통문화체험+만들기체험+자연생태체험+기타","규방공예목걸이+브로치만들기+모시의비밀이야기+벽오리무인판매대+봉선지에서보는별빛보기캠프+인두화(우드버닝)+힐링/치유단체체험+황토방가족힐링/치유체험+텐트야영체험+조약돌추억쓰기+전통활쏘기+식체험+별보기체험+밥상머리교육+모시송편만들기+둘레길생태학습체험+둘레길주변나물채취","","","","충청남도 서천군 마산면 한마로 677","황의신","041-953-1024","2017-10-24","","충청남도 서천군청","36.13345023","126.782861","2025-01-07","B552149","한국농어촌공사"
"2074","물여울마을","충청남도","청양군","농작물경작체험+건강+만들기체험+자연생태체험+기타","감자전만들기+농산물수확체험+라벤더화분만들기+물고기잡기체험+민화에코백만들기+산딸기따기체험+친환경우렁농법체험+천연수세미만들기+조롱박걱정인형만들기+장담그기+옥수수따기체험+씨앗놀이+생태숲체험+볶음차만들기+물놀이+메뚜기잡기체험+농촌에서살아보기+고추전만들기+감자캐기","","","","충청남도 청양군 화성면 산당로 441","전용분","041-942-9100","2017-10-24","","충청남도 청양군청","36.45873049","126.703929","2025-01-07","B552149","한국농어촌공사"
"2102","매화둠벙마을","충청남도","태안군","농작물경작체험+만들기체험+전통문화체험+기타","감자캐기+노래방+농산물보물찾기+마늘뽑기체험+미꾸라지잡기+손두부만들기+선진지견학마을소개+새집만들기체험+삼색쌀찐빵만들기+삼굿구이+삼구연필꽃이만들기+사례발표+벼도정+버섯체험+황금들판둠벙이야기+한과만들기+캠프파이어체험+짚풀공예+장뇌삼심기+인절미만들기+먹거리체험+둠벙생태체험+농사체험+건강쥬스만들기+감효소담그기+갯벌체험","","","","충청남도 태안군 원북면 동해길 301-41","정교모","041-672-0109","2017-10-24","","충청남도 태안군청","36.812067","126.226815","2025-01-07","B552149","한국농어촌공사"
"2104","머드농수산체험마을","충청남도","보령시","농작물경작체험+만들기체험+건강+자연생태체험+기타","굴구이+바다체험+숙박(솔향휴양)+휴양치유+효소담그기+캠프운영+장류담그기+유기농김장담그기+산채+문화체험+김뜨기+농사체험+머드고구마가공+동물체험","","","","충청남도 보령시 천북면 사호장은로 563-5","최정숙","041-641-9940","2018-05-11","","충청남도 보령시청","36.500143","126.491175","2025-01-07","B552149","한국농어촌공사"
"2118","막현리마을","충청남도","금산군","기타+전통문화체험","가래떡만들기체험+꺼리체험+단순방문+민속얼음썰매체험+산촌체험숙박시설+산더덕캐기+두부만들기체험+농산물가공체험","","","","충청남도 금산군 진산면 하막현길 77","진종진","041-752-9772","2017-10-24","","충청남도 금산군청","36.204044","127.368045","2025-01-07","B552149","한국농어촌공사"
"2120","만대마을","충청남도","태안군","농작물경작체험+만들기체험+자연생태체험+기타","농사체험+바다생태체험+염전체험+도자기체험","","","","충청남도 태안군 이원면 원이로 2571-10","양은선","","2019-12-23","","충청남도 태안군청","36.947905","126.301282","2025-01-07","B552149","한국농어촌공사"
"2129","둥구리마을","충청남도","논산시","농작물경작체험+만들기체험+기타","감자캐기+수제청만들기+사과수확체험+비즈공예+비누만들기+버블체험+딸기쨈+딸기수확체험+딸기모종심기체험+들기름+참기름짜기+풍선아트+포도수확체험+토탈공예+양말목공예+곶감깍기+곶감레시피+꽃차체험+두부만들기+눈꽃통닭만들기+고추장+된장담그기","","","","충청남도 논산시 양촌면 중산길 35","천관봉","","2017-10-24","","충청남도 논산시청","36.119906","127.204049","2025-01-07","B552149","한국농어촌공사"
"2134","딸기마을","충청남도","논산시","농작물경작체험+만들기체험+기타","사촌방문+비누방향제만들기+비누만들기+벼심기+벼베기+밀납향초만들기+떡가루오감만족체험+땅콩캐기체험+딸기한살이+택배농산물(딸기)+자연과만나는오감체험+인절미떡매치기+인삼케기+딸기케익+딸기쨈g+딸기잼g+딸기수확체험g+딸기묘화분만들기+딸기마을프로그램+딸기고추장비빔밥+딸기고추장+견학+고구마캐기+귀농교육+도라지캐기+김장담그기+감자캐기","","","","충청남도 논산시 광석면 논산평야로1119번길 125","이태은","","2017-10-24","","충청남도 논산시청","36.257469","127.1023996","2025-01-07","B552149","한국농어촌공사"
"2142","동백꽃마을","충청남도","서천군","농작물경작체험+전통문화체험+만들기체험+자연생태체험+기타","감자캐기+청국장만들기+천연화장품만들기+천연야생화분경+천연비누만들기+잔디인형만들기+오색주먹밥만들기체험+시골밥상체험(특)+보존화코르크분경+바다향초만들기체험+미니사과따기+모시송편만들기체험+모내기체험+떡메치기+고구마캐기+고추장체험+농촌체험+동백립밥만들기+단호박피자만들기+갯벌체험","","","","충청남도 서천군 마서면 합전길 77","조향순","","2017-10-24","","충청남도 서천군청","36.048616","126.668679","2025-01-07","B552149","한국농어촌공사"
"2143","동자북마을","충청남도","서천군","기타","모시송편빗기체험+모시음식체험+미니팔찌만들기체험+소곡주빚기체험+모시칼국수체험","","","","충청남도 서천군 한산면 신성로 36-16","박창순","041-951-7743","2017-10-24","","충청남도 서천군청","36.084456","126.813768","2025-01-07","B552149","한국농어촌공사"
"2146","두곡마을","충청남도","금산군","농작물경작체험+건강+자연생태체험+만들기체험+전통문화체험+기타","감자수확+화분만들기+홍삼만들기+한방환만들기+한방발효액만들기+토피어리+컵만들기+칼라파동치유체험+칼라치유체험+친환경세제만들기+족욕헥사곤체험+인삼꽃병+음식만들기+아로니아수확효소만들기+썰매타기+쌍화차만들기+쌍화차+생기면역체험+배드민턴(체육관)+물고기잡기+드론체험+드론사진촬영+김장김치+깻잎따기+꽃터치치유체험+농산물판매+나만의손수건+글라이더만들어날리기","","","","충청남도 금산군 부리면 무금로 1650","박성춘","041-753-2608","2017-10-24","","충청남도 금산군청","36.064239","127.551766","2025-01-07","B552149","한국농어촌공사"
"2162","도담골호반마을","충청남도","공주시","농작물경작체험+기타","강백년권역체험+찾아가는농촌체험+자전거여행+낚시체험+솟대와장승만들기체험+시골길마차여행+알밤줍기체험+생태야놀자(계절별)+고향순두부만들기체험","","","","충청남도 공주시 의당면 강백년길 29","김학출","","2017-10-24","","충청남도 공주시청","36.58227977","127.1699103","2025-01-07","B552149","한국농어촌공사"
"2179","대장이랜드마을","충청남도","공주시","만들기체험+기타","냅킨아트+두부만들기체험+우드버닝체험+두부만들기체험(고급)","","","","충청남도 공주시 계룡면 갑사로 307","양복희","","2021-12-22","","충청남도 공주시청","36.368733","127.165261","2025-01-07","B552149","한국농어촌공사"
"2188","덕바위마을","충청남도","논산시","농작물경작체험+건강+자연생태체험+만들기체험+전통문화체험","체험-곤충+튜브대여+체험-체험교실단체+체험-자유이용권+체험-빙어잡기+체험-병아리+체험-바이킹+체험-미꾸라지+체험-물썰매+체험-물다람쥐+체험-물놀이(단체)+체험-물놀이+체험-라탄+체험-동전놀이기구+체험-동물먹이+체험-달고나+체험-눈썰매+체험-농촌체험+체험-깡통기차+체험-네일+체험-놀이+체험-농촌공예+체험-놀이단체+체험-군밤","","","","충청남도 논산시 연산면 선비로604번길 46-20","이현옥","041-733-2063","2017-10-24","","충청남도 논산시청","36.237694","127.184417","2025-01-07","B552149","한국농어촌공사"
"2191","달빛영근마을","충청남도","공주시","농작물경작체험+만들기체험+전통문화체험","떡매치기+벼의일생+숙박(체험관)+짚풀공예+호롱불체험+밤줍기대회","","","","충청남도 공주시 정안면 쌍달길 160","이득열","","2017-10-24","","충청남도 공주시청","36.575977","127.091651","2025-01-07","B552149","한국농어촌공사"
"2201","대동마을","충청남도","천안시","기타","전통장만들기+주말농장","","","","충청남도 천안시 동남구 동면 장송죽계길 189","이상우","","2017-10-24","","충청남도 천안시청","36.789643","127.380671","2025-01-07","B552149","한국농어촌공사"
"2205","닥실마을","충청남도","금산군","농작물경작체험+건강+만들기체험+전통문화체험+기타","강당사용+전통놀이체험+체험키트꾸러미+캠핑체험+찾아가는농촌체험교육+자유학년제+금강생태체험(습지+여울)+농촌체험+서각체험+만들기체험","","","","충청남도 금산군 제원면 닥실길 27","정대호","","2017-10-24","","충청남도 금산군청","36.104301","127.5691601","2025-01-07","B552149","한국농어촌공사"
"2209","달고개모시마을","충청남도","서천군","기타+만들기체험","농사체험+송편만들기+모시공예만들기","","","","충청남도 서천군 화양면 화한로504번길 5","양생규","","2017-10-24","","충청남도 서천군청","36.065734","126.821348","2025-01-07","B552149","한국농어촌공사"
"2227","산벚꽃농촌체험휴양마을","충청남도","금산군","농작물경작체험+건강+전통문화체험+만들기체험+자연생태체험","고구마캐기+염소먹이주기+크스마스장식+오디따기+야채따기+기차타기+도자기만들기+숙박체험+비즈만들기","","","","충청남도 금산군 군북면 자진뱅이길 165 (산안리, 산안2리마을회관)","한기재","","2021-04-27","","충청남도 금산군청","36.19203233","127.5774841","2025-01-07","B552149","한국농어촌공사"
"2228","산성골마을","충청남도","당진시","영농체험,만들기체험","고구마수확+코스모스손수건만들기","","","","충청남도 당진시 정미면 회천로 292-3 (산성리, 산성리마을회관)","문한석","","2022-03-23","","충청남도 당진시청","36.847821","126.520061","2025-01-07","B552149","한국농어촌공사"
"2248","사월1리마을","충청남도","논산시","기타+만들기체험","고구마캐기체험+사과따기체험+사과초콜렛만들기+오가피열매술만들기체험+전통놀이체험+팬션휴양(수영장이용)+오가피효소만들기체험+오가피순따기체험+사과비누만들기+매실수확체험+농장캔들만들기","","","","충청남도 논산시 광석면 논산평야로 1080","황민희","","2017-10-24","","충청남도 논산시청","36.248401","127.109807","2025-01-07","B552149","한국농어촌공사"
"2249","사자산농촌체험휴양마을","충청남도","청양군","농작물경작체험+자연생태체험+건강+기타+전통문화체험+만들기체험","가재잡기+대체프로그램+무동력농기계체험+밤줍기체험+한과만들기+전통놀이+자연생태체험+옥수수+고추따기+고구마케기+시골냇가물놀이체험+생태체험+산야초효소체험+산산제및사자산생일잔치+사자산마을농촌봉사+밤+고구마구워먹기+마을선진지견학+농촌에서살아보기+구기자와플만들기체험+구기자천연비누만들기+농촌봉사및체험","","","","충청남도 청양군 운곡면 배미길 29","최규호","041-943-0089","2017-10-24","","충청남도 청양군청","36.521278","126.876731","2025-01-07","B552149","한국농어촌공사"
"2253","봉하마을","충청남도","서천군","농작물경작체험+전통문화체험+건강+만들기체험+기타","기타체험+두부소세지체험+모시떡+신체험+역사논술+전시관관람및치유놀이+천연염색+유리공예+아로마테라피+물놀이+다육아트치유","","","","충청남도 서천군 서면 서인로 1044-13","최태림","","2017-10-24","","충청남도 서천군청","36.150646","126.576492","2025-01-07","B552149","한국농어촌공사"
"2258","부여양송이마을","충청남도","부여군","농작물경작체험+자연생태체험+전통문화체험+만들기체험","나도요리사+물놀이체험+버섯돌이체험+양송이머핀만들기+양송이에코백만들기+양송이파스타+역사보고탐험대+자유학기진로체험+주말화덕피자+전부치기체험+인성학교프로그램+양송이화덕피자만들기+양송이치즈구이+양송이버거만들기체험+수영장(물놀이체험)+나만의화분심기","","","","충청남도 부여군 석성면 금백로 425","이원철","","2017-10-24","","충청남도 부여군청","36.244466","126.992256","2025-01-07","B552149","한국농어촌공사"
"2277","봉선부엉이체험마을","충청남도","서천군","만들기체험+자연생태체험","라탄바구니+제과+제빵+식체험+커피+차+초코렛체험+생태탐험+힐링길자연환경체험+목공+쿠미키","","","","충청남도 서천군 시초면 시초동로282번길 38-17","최규훈","","2021-03-23","","충청남도 서천군청","36.13257965","126.7722283","2025-01-07","B552149","한국농어촌공사"
"2278","봉암마을","충청남도","홍성군","기타","견학+쥐불놀이+엿만들기체험+쑥개떡체험+송편만들기+대나무물총만들기+떡메치기+마을전설과함께하는가족나들이+손두부체험+봄나물캐기+낙엽으로액자꾸미기","","","","충청남도 홍성군 금마면 봉수산로418번길 91","복명순","","2017-10-24","","충청남도 홍성군청","36.59597006","126.756347","2025-01-07","B552149","한국농어촌공사"
"2292","별마을","충청남도","서산시","농작물경작체험+만들기체험+기타","감자샐러드샌드위치+페트병화분만들기+쑥별떡만들기+비빔밥체험+농촌체험(농산물수확)+다육화분만들기+별석고방향제+별콩향초만들기+별자리목걸리만들기+고구마맛탕만들기","","","","충청남도 서산시 해미면 오학별마을길 30-2","이승희","041-688-0070","2017-10-24","","충청남도 서산시청","36.719445","126.553065","2025-01-07","B552149","한국농어촌공사"
"2295","볏가리마을","충청남도","태안군","농작물경작체험+기타+전통문화체험+만들기체험","인절미만들기+오디수확+염전체험+볏가릿대세우기+갯벌체험+고구마수확+다육식물화분만들기+두부만들기+동물농장체험+감자수확","","","","충청남도 태안군 이원면 볏가리길 62","손영철","041-672-7296","2017-10-24","","충청남도 태안군청","36.898398","126.293999","2025-01-07","B552149","한국농어촌공사"
"2298","보리감자마을","충청남도","공주시","농작물경작체험+기타","감자캐기+농작물수확+딸기화분만들기+보리감자마을축제+생태체험+오미자팝콘만들기+합동새배+알밤줍기+산신제+떡메치기+달집태우기+김장담그기","","","","충청남도 공주시 유구읍 안동해동길 5","최중근","","2017-10-24","","충청남도 공주시청","36.613039","127.01966","2025-01-07","B552149","한국농어촌공사"
"2312","백제인동마을","충청남도","부여군","기타","계절별두부만들기체험+연만들기+연날리기+텃밭채소로비빔밥만들기+알밤줍기체험+계절별떡만들기체험+꽃부채만들기+시기별농산물수확체험+나만의도자기목걸이만들기","","","","충청남도 부여군 은산면 지천로 539-3","이길용","041-833-7564","2017-10-24","","충청남도 부여군청","36.360794","126.842796","2025-01-07","B552149","한국농어촌공사"
"2318","밤톨이마을","충청남도","공주시","농작물경작체험+전통문화체험+만들기체험+기타","공룡만들기+밤을넣어만든음식+새총쏘기+알밤줍고추억담고+불피우기+밤양갱(밤묵)만들기+밤붕어빵만들기","","","","충청남도 공주시 정안면 북계새뜸길 61","이행희","041-854-7770","2017-10-24","","충청남도 공주시청","36.560983","127.123216","2025-01-07","B552149","한국농어촌공사"
"2322","방길동마을","충청남도","서산시","기타","감자캐기체험","","","","충청남도 서산시 팔봉면 팔봉산로 122","지선하","041-669-0111","2017-10-24","","충청남도 서산시청","36.819501","126.366783","2025-01-07","B552149","한국농어촌공사"
"2332","백곡리마을","충청남도","청양군","농작물경작체험+만들기체험","구기자따기+나무컵받침만들기+블루베리따기","","","","충청남도 청양군 정산면 백곡길 154","윤상기","041-942-4003","2017-10-24","","충청남도 청양군청","36.416646","126.969732","2025-01-07","B552149","한국농어촌공사"
"2338","바둑골마을","충청남도","청양군","농작물경작체험+전통문화체험+건강","농산물수확체험+체력단련+향토음식+천연화장품만들기+밤줍기+수영체험+숲속탐방+아로마테라피+산나물채취체험+물썰매(눈썰매)타기","","","","충청남도 청양군 정산면 남천바둑골길 108","이현정","041-943-3663","2017-10-24","","충청남도 청양군청","36.454036","126.98393","2025-01-07","B552149","한국농어촌공사"
"2341","바리실마을","충청남도","금산군","농작물경작체험+기타","고구마캐기+약초캐기+친환경농법체험+옛생활물품전시장체험+사과체험+농수산물직거래+농촌동물체험+무공해자동차타보기+농촌일손돕기","","","","충청남도 금산군 제원면 바리실길 187","임윤빈","","2017-10-24","","충청남도 금산군청","36.132919","127.524997","2025-01-07","B552149","한국농어촌공사"
"2360","신현(쌈지돈)마을","충청남도","보령시","농작물경작체험+만들기체험+자연생태체험+건강+기타","EM비누만들기+고구마캐기+논두렁밭두렁+동력패러글라이딩A+떡메치기+벼베기+삼색칼국수/삼색수제비+손두부만들기+텃밭정원가꾸기교육+추억훔치기-헛서리+인식물키우기+연만들기+씨앗파종+쑥개떡만들기+쌀강정만들기+수제소세지만들기+수경재배체험+황토염색체험+환경산업/EM쥬스만들기+향기산업/직업체험+토끼야오리야놀자+테라리움만들기+샤인머스켓수확+봄체험패키지+모내기체험+동력패러글라이딩B+다육이화분만들기+김치담그기","","","","충청남도 보령시 천북면 삼산농현길 147-17","편용범","041-641-7744","2017-10-24","","충청남도 보령시청","36.48283039","126.5959047","2025-01-07","B552149","한국농어촌공사"
"2375","시골애마을","충청남도","논산시","기타","딸리체험+우렁이방사","","","","충청남도 논산시 광석면 장마루로516번길 18-3","윤주보","","2017-10-24","","충청남도 논산시청","36.26140563","127.0803853","2025-01-07","B552149","한국농어촌공사"
"2451","장고도어촌체험휴양마을","충청남도","보령시","어촌생활체험","바지락캐기체험+소라잡기체험+낚지,해상잡기체험","교육장+주차장+마을회관","","https://www.seantour.kr/vill/VILL_0000000009/JF_00000000000003269/VILL_0000000009/7327F91858684663B762F9A93439F2BA.jpg","충청남도 보령시 오천면 장고도1길 100-177","편도진","","2011-09-27","http://www.장고도어촌체험마을.kr/","한국어촌어항공단","36.4010876","126.3548438","2025-01-21","B553968","한국어촌어항공단"
"2452","무창포어촌체험휴양마을","충청남도","보령시","어촌생활체험+기타","바지락캐기체험+해변관광열차타기체험+양궁배우기체험","주차장+체험안내소+체험도구 보관장","","https://www.seantour.kr/vill/VILL_0000000081/JF_00000000000003264/VILL_0000000081/D80D314E06CD45F0A330229F10006D21.jpg","충청남도 보령시 웅천읍 열린바다1길 28","이종길","041-934-3504","2019-03-05","http://www.무창포어촌체험마을.kr/","한국어촌어항공단","36.24317652","126.5354631","2025-01-21","B553968","한국어촌어항공단"
"2463","대야도어촌체험휴양마을","충청남도","태안군","어촌생활체험+레포츠","바지락캐기체험+선상낚시체험","교육장+주차장+안내실+체험도구 보관장","","https://www.seantour.kr/vill/VILL_0000000083/JF_00000000000003261/VILL_0000000083/95330B71D12A413691F8066BBBC5333A.jpg","충청남도 태안군 안면읍 대야로 349","정재봉","041-673-9673","2016-04-14","http://www.대야도어촌체험마을.kr/","한국어촌어항공단","36.46694367","126.4152899","2025-01-21","B553968","한국어촌어항공단"
"2464","가경주어촌체험휴양마을","충청남도","태안군","어촌생활체험+어촌생활체험","바지락캐기체험+쏙잡기체험+독살체험","교육장+주차장+체험센터","","https://www.seantour.kr/vill/VILL_0000000179/JF_00000000000003323/VILL_0000000179/3A67502B481B45FF972AF374DBF1659E.jpg","충청남도 태안군 고남면 가경주길77","편도관","041-672-5452","2015-07-28","http://www.가경주체험마을.com/","한국어촌어항공단","36.41530016","126.4091494","2025-01-21","B553968","한국어촌어항공단"
"2466","삽시도어촌체험휴양마을","충청남도","보령시","어촌생활체험","바지락체험+소라잡기체험+낚지잡기체험","교육장+주차장+체험센터","","https://www.seantour.com/newseantour/upload/LC_IMG/thumbnail/20200818/22D82E899F5C40498AF7D41DF8012136.jpg","충청남도 보령시 오천면 삽시도1길 213","강동회","041-936-0825","2012-02-09","http://www.삽시도어촌체험마을.kr/","한국어촌어항공단","36.35132803","126.363439","2025-01-21","B553968","한국어촌어항공단"
"2467","군헌어촌체험휴양마을","충청남도","보령시","어촌생활체험","바지락캐기체험","주차장","400000","https://www.seantour.kr/vill/VILL_0000000150/JF_00000000000003291/VILL_0000000150/6916DFE7A54647A3A5ED7C40925EEF7F.jpg","충청남도 보령시 해안로 607-5","최종인","0507-1400-418","2010-04-16","http://www.군헌어촌체험마을.kr/","한국어촌어항공단","36.3369616","126.5331937","2025-01-21","B553968","한국어촌어항공단"
"2468","중리어촌체험휴양마을","충청남도","서산시","어촌생활체험+기타+만들기체험","바지락캐기체험+깡통열차타기체험+감태 초콜렛 만들기체험","실내체험장+교육장+주차장+어민행복관","","https://www.seantour.com/newseantour/upload/common/common_161201415889400.png","충청남도 서산시 지곡면 어름들2길 66","박현규","041-665-9498","2012-09-12","http://www.중리어촌체험마을.kr/","한국어촌어항공단","36.88040246","126.3845439","2025-01-21","B553968","한국어촌어항공단"
"2469","왕산어촌체험휴양마을","충청남도","서산시","어촌생활체험+만들기체험","바지락 캐기+감태비누만들기","교육장+주차장","10000","https://www.seantour.com/newseantour/upload/common/common_1012617745648100.png","충청남도 서산시 지곡면 왕산이로 667-10","김종배","041-662-7118","2014-12-29","http://www.왕산어촌체험마을.kr/","한국어촌어항공단","36.87316575","126.3700295","2025-01-21","B553968","한국어촌어항공단"
"2470","월하성어촌체험휴양마을","충청남도","서천군","어촌생활체험","바지락, 동죽 캐기","실내체험장+교육장+주차장","","https://www.seantour.com/newseantour/upload/LC_IMG/thumbnail/20200728/A79C93BF9B2B4D6DA7B7FB87FEBE55CF.jpg","충청남도 서천군 서면 월하성길 96","최병혁","","2022-02-24","http://www.월하성어촌체험마을.kr/","한국어촌어항공단","36.13294484","126.5622997","2025-01-21","B553968","한국어촌어항공단"
"2471","선도리어촌체험휴양마을","충청남도","서천군","어촌생활체험+만들기체험","바지락캐기,굴따기체험+맛조개,동죽캐기체험+추억새기기체험","교육장+주차장+체험안내소+먹거리체험장+농수산물 판매장+판매장식당+회의실","","https://www.seantour.kr/vill/VILL_0000000146/JF_00000000000003298/VILL_0000000146/51E9277B495D489A866912DF3BA93E89.jpg","충청남도 서천군 비인면 갯벌체험로 428-13","박선순","041-952-5212","2018-11-14","https://seondori.com/","한국어촌어항공단","36.13285186","126.5828138","2025-01-21","B553968","한국어촌어항공단"
"2472","용신어촌체험휴양마을","충청남도","태안군","어촌생활체험","바지락 캐기","주차장","","https://www.seantour.kr/vill/VILL_0000000001/JF_00000000000003267/VILL_0000000001/DB2BC2D0F6254891AD24CD2F51805237.jpg","충청남도 태안군 근흥면 용도로 470-91","윤명상","041-673-0401","2015-08-25","http://www.용신어촌체험마을.kr/","한국어촌어항공단","36.70582661","126.2390094","2025-01-21","B553968","한국어촌어항공단"
"2473","병술만어촌체험휴양마을","충청남도","태안군","어촌생활체험","바지락캐기체험","주차장+체험안내실+매점","","https://www.seantour.kr/vill/VILL_0000000003/JF_00000000000003265/VILL_0000000003/8A42D47FF08A48C99A7A72435AA873B3.jpg","","김재복","041-673-6191","2022-10-20","http://www.병술만어촌체험마을.kr/","한국어촌어항공단","36.47331108","126.3442883","2025-01-21","B553968","한국어촌어항공단"
"2474","만대어촌체험휴양마을","충청남도","태안군","어촌생활체험","바지락 캐기","주차장","","https://www.seantour.kr/vill/VILL_0000000010/JF_00000000000003286/VILL_0000000010/8BB56C6E70DD454F894E70798A937988.jpg","충청남도 태안군 이원면 원이로 2394","김진묵","","2014-12-10","http://www.만대어촌체험마을.kr/","한국어촌어항공단","36.93275584","126.3033634","2025-01-21","B553968","한국어촌어항공단"
"2475","송석해의마을어촌체험휴양마을","충청남도","서천군","어촌생활체험","기타","","","","충청남도 서천군 마서면 송신로 707","이상진","","2014-12-10","","한국어촌어항공단","36.07730186","126.6205002","2025-01-21","B553968","한국어촌어항공단"
"2506","송정그림책마을","충청남도","부여군","전통문화체험+전통음식체험+만들기체험","강의+대관()+들려주는그림책+마을사업강의()+음료()+할머니도시락+하냥살응게이냥좋아+체험()+인형극삼녀의꿈+이야기산책+들려주는그림책+이야기산책+송정마을그림책+마을사업강의+대관비+기념품()+느린그림엽서+대관()","","","","충청남도 부여군 양화면 양화북로222번길 13-1 (송정리, 그림책읽는 마을찻집)","박상신","041-837-8030","2024-02-08","","충청남도 부여군청","36.137241","126.831087","2025-01-07","B552149","한국농어촌공사"
"2508","송죽마을","충청남도","부여군","농작물경작체험+만들기체험+전통문화체험","김장체험+두부만들기+방울토마토따기+손수건+티셔츠염색체험+추억의도시락+천연비누만들기+짚공예+전래놀이+억새연필꽂이만들기+억새발만들기+압화공예(부채)+송편+인절미떡만들기+소원풍등날리기+바베큐구워먹기체험+대나무화분심기+달집태우기(고구마+밤구워먹기)+대나무압화향초만들기+대나무통밥만들기","","","","충청남도 부여군 장암면 원문로 53-6","이화형","041-837-1152","2017-10-24","","충청남도 부여군청","36.23534815","126.8811523","2025-01-07","B552149","한국농어촌공사"
"2529","솔마당마을","충청남도","서산시","기타+만들기체험","농사체험+쪽마늘꿀조리림+홀태체험+편강만들기+콩천대+찹쌀고추장만들기+쪽마늘소스만들기+짚풀공예+마늘된장만들기+생강향초만들기+솔방울꾸러미만들기+인절미체험+마늘짱아지만들기+땅콩팔지만들기","","","","충청남도 서산시 인지면 성리동산길 73","이수혜","041-668-0063","2017-10-24","","충청남도 서산시청","36.78380383","126.4003677","2025-01-07","B552149","한국농어촌공사"
"2535","솟대마을","충청남도","천안시","기타+자연생태체험+전통문화체험","나무목걸이만들기+솟대만들기+짚풀공예+손수건천연염색+두부만들기+떡메치기+물고기잡기","","","","충청남도 천안시 동남구 북면 양곡2길 3","유수진","041-553-2580","2017-10-24","","충청남도 천안시청","36.85138039","127.2813215","2025-01-07","B552149","한국농어촌공사"
"2570","소랭이마을","충청남도","공주시","농작물경작체험+만들기체험+자연생태체험+전통문화체험","귀촌(밤단호박찜)+귀촌(약식)+귀촌(양초체험)+귀촌(타일공예)+밤물김치(귀촌)+우리것+세상채우기(찾아가는+우리것+세상채우기+압화도자기(찾아가는)+압화도자기+밤트레킹+군밤+밤트레킹+밤전만들기+밤양갱만들기(찾아가는)+밤양갱만들기+전통놀이(소)+전통놀이(대)+율피비누만들기(찾아가는)+율피비누만들기+율란(찾아가는)+율란+귀촌(테라리움)+귀촌(율피)+귀촌(양갱이체험)+귀촌(압화)+귀촌(밤물김치)+귀촌(수확작물음식만들기)","","","","충청남도 공주시 정안면 정안마곡사로 396","임슬아","","2017-10-24","","충청남도 공주시청","36.6272931","127.0829962","2025-01-07","B552149","한국농어촌공사"
"2620","상리마을","충청남도","홍성군","기타+전통문화체험","감따기및곶감만들기+자연염색체험+쑥개떡만들기+소원북만들기+백일상체험+문화센터교실+나무액자만들기+농촌체험+다도+예절+딸기쨈만들기+딸기따기+꽃차만들기","","","","충청남도 홍성군 홍북읍 매죽헌길 423","황선영","","2017-10-24","","충청남도 홍성군청","36.644421","126.732841","2025-01-07","B552149","한국농어촌공사"
"2643","삼태미마을","충청남도","논산시","기타","도예체험+딸기따기+쨈만들기+천연염색+딸기인절미","","","","충청남도 논산시 노성면 호월로 387-3","윤성로","","2017-10-24","","충청남도 논산시청","36.322246","127.10414","2025-01-07","B552149","한국농어촌공사"
"2678","가파마을","충청남도","청양군","농작물경작체험+전통문화체험+만들기체험+기타","계란꾸러미만들기+김치만들기+다식만들기+카네이션화분만들기+체험종+쪽염색+전통두부만들기+유기농구기자효소만들기+쑥개떡만들기체험+배송키트대나무헬리콥터+떡메치기+대나무헬리콥터키트+나의나무그리기+김장김치만들기+고추장떡만들기+구기자고추장g+구기자볶음소금만들기+구기자고추장kg","","","","충청남도 청양군 대치면 가파로 506-8","임상혁","041-944-2401","2017-10-24","","충청남도 청양군청","36.497758","126.880034","2025-01-07","B552149","한국농어촌공사"
"2681","갈숲마을","충청남도","서천군","만들기체험+건강+기타","과일청만들기+베틀체첨+소곡주빚기+천연발효식초+한방소화제+소곡주시음체험+소곡주병DIY+목공+기능성소금+모시송편만들기","","","","충청남도 서천군 한산면 신성로 283","최재형","041-951-2077","2017-10-24","","충청남도 서천군청","36.075779","126.838272","2025-01-07","B552149","한국농어촌공사"
"2687","강당골마을","충청남도","아산시","농작물경작체험+만들기체험+자연생태체험+기타","과일젤리만들기+광덕산생태체험+다육이체험+무드등만들기+블루베리체험+쉐이커만들기+스칸디아모스콜라주+연잎밥만들기+펜+커피젤리만들기+천연꿀비누만들기+천아트+전통무예천무극체험+스트링공예+스칸디아모스컵바구니+셀프도자기머그컵만들기+민박숙박+매실청만들기+다육이액자","","","","충청남도 아산시 송악면 강당학마을길 7","조혜경","041-545-7433","2017-10-24","","충청남도 아산시청","36.716931","127.015455","2025-01-07","B552149","한국농어촌공사"
"2697","거북이마을","충청남도","홍성군","농작물경작체험+전통문화체험+건강+자연생태체험+만들기체험+기타","거북이마당놀이체험+고비만들기+김장체험+대나무숲+보개산숲길체험+떡메치기+밥상머리교육+새집만들기+연필꽂이만들기+향긋한봄나물고사리꺾기+전통제례체험+전통예절체험+수선화화분만들기+사례발표+마을해설+동글이감자캐기+나무화분만들기+고구마캐기","","","","충청남도 홍성군 구항면 거북로 422-41","전병환","041-631-0402","2017-10-24","","충청남도 홍성군청","36.57248008","126.612052","2025-01-07","B552149","한국농어촌공사"
"2700","계룡넓은돌마을","충청남도","계룡시","기타+만들기체험","딸기고추장만들기+체험+빨강에미치다+하우스터널고추따기+체험+White에미끄러지다+빨간맛_딸기따기체험+아로마디퓨저만들기체험+우리쌀강정만들기체험+천연비누만들기체험+사랑에너지+Yellow+땅속의보물감자캐","","","","충청남도 계룡시 엄사면 나분들길 16","송무선","042-841-0074","2017-10-24","","충청남도 계룡시청","36.266039","127.224243","2025-01-07","B552149","한국농어촌공사"
"2701","계룡산상신농촌체험휴양마을","충청남도","공주시","농작물경작체험+건강+만들기체험+전통문화체험","두부체험+만두만들기+만두전골체험+방과후학습+인절미체험+청국장만들기체험+한국전통명상체험+전통촌락문화탐방+상신호흡학교철야명상+바베큐체험","","","","충청남도 공주시 반포면 상하신길 396","최지훈","041-852-1479","2017-10-24","","충청남도 공주시청","36.384491","127.220108","2025-01-07","B552149","한국농어촌공사"
"2709","고미당마을","충청남도","홍성군","농작물경작체험+기타+전통문화체험","고추체험+텃밭식당+종가음식시범사업+정월대보름행사+동행길+딸기체험+식기박물관+작가와의만남+예당큰집+고택체험","","","","충청남도 홍성군 장곡면 무한로 987","최금숙","","2017-10-24","","충청남도 홍성군청","36.497229","126.7444298","2025-01-07","B552149","한국농어촌공사"
"2713","고살메갈꽃체험마을","충청남도","서천군","만들기체험","가죽팔찌만들기+모시앤틱반지만들기+모시팔찌만들기(소)+은귀걸이만들기+평반지만들기+실반지만들기+모시팔찌만들기(대)+모시브로치만들기+꽈배기반지만들기+모시-링만들기","","","","충청남도 서천군 서천읍 삼산남길 66","한병우","","2017-10-24","","충청남도 서천군청","36.063535","126.721653","2025-01-07","B552149","한국농어촌공사"
"2717","고인돌마을","충청남도","청양군","전통문화체험+만들기체험+기타","간장과된장담그기+커피맷돌체험과커피방향제만들기+커피박키링만들기(행사용)+커피맷돌체험과바리스타체험+나만의바람개비만들기+바리스타체험(로스팅+핸드드립)+천연밀랍초만들기+청양고추냉면만들기+바리스타체험(다양한도구)+구지자장칼국수만들기체험","","","","충청남도 청양군 운곡면 고인돌길 37","최미애","","2017-10-24","","충청남도 청양군청","36.506949","126.830314","2025-01-07","B552149","한국농어촌공사"
"2736","구레울체험마을","충청남도","부여군","농작물경작체험+만들기체험+전통문화체험","겨울놀이+두부+밤맛탕만들기+밤줏기+호랭이콩따기+표고버섯+집풀공예품제작+완두콩따기+벼홀태+밤묵만들기+매실따기+대나무통밥+고구마캐기+고사리꺽기체험+낙화봉제작","","","","충청남도 부여군 내산면 홍내로천보길 149","정영임","041-834-5900","2017-10-24","","충청남도 부여군청","36.246236","126.763873","2025-01-07","B552149","한국농어촌공사"
"2750","그리고마을","충청남도","보령시","농작물경작체험+만들기체험+자연생태체험","고사리친구녹두전+자급자족캠핑+아크릴무드등+숲에서놀자+꽃과함께","","","","충청남도 보령시 미산면 내평봉성길 342","차해병","041-935-1005","2020-05-21","","충청남도 보령시청","36.227328","126.694263","2025-01-07","B552149","한국농어촌공사"
"2769","기쁨두배마을","충청남도","아산시","농작물경작체험+건강+만들기체험+기타","감자캐기+티매트만들기+체험관+찹쌀고추장만들기+장아찌만들기+장명루팔찌만들기+옥수수따기체험+오디따기+생두가원두로(로스팅체험)+생강레몬청만들기+사과따기+배청키트+배청만들기+배따기+계절김치담그기+고구마+땅콩캐기+김장하기+배깎두기만들기+나만의핸드드립+개복숭아효소만들기","","","","충청남도 아산시 둔포면 석곡길 101","정현주","041-532-6754","2017-10-24","","충청남도 아산시청","36.912144","127.056328","2025-01-07","B552149","한국농어촌공사"
"2772","길우지마을","충청남도","태안군","농작물경작체험+만들기체험+자연생태체험","고구마캐기체험+목공예체험+와송화분만들기체험","","","","충청남도 태안군 안면읍 길우지길 332-46","허진우","","2017-10-24","","충청남도 태안군청","36.466612","126.374935","2025-01-07","B552149","한국농어촌공사"
"2777","까치내마을","충청남도","청양군","농작물경작체험+자연생태체험+만들기체험","고깔모자만들기+참게어항꾸미기+지우개조각및장승깎기+밤줍기+미꾸라지+다슬기잡기+물놀이+물고기+야생화관찰+목각공예체험+농산물수확체험+구기자방울토마토따기","","","","충청남도 청양군 장평면 지천로 1241-8","황인석","","2017-10-24","","충청남도 청양군청","36.388498","126.860154","2025-01-07","B552149","한국농어촌공사"
"2779","꽃가꾸는대통령마을","충청남도","아산시","기타+자연생태체험+만들기체험","ATV(륜오토바이)+하바리움+천연비누패키지+하바리움+충무풀장+천연비누+자연숲걷기체험+윤보선대통령묘관람+완토란재배+역사체험+얼음썰매+야영+승마+산성체험+비가림포도+벽트리+방향제접기+꽃사슴구경하고놀기+나무가랜드+대보름축제+밤줍기체험+대통령묘소참배+MTB(산악자전거)","","","","충청남도 아산시 음봉면 충무로604번길 106-20","방병주","","2017-10-24","","충청남도 아산시청","36.834438","127.022954","2025-01-07","B552149","한국농어촌공사"
"2780","꽃내미풀꽃이랑마을","충청남도","공주시","농작물경작체험+만들기체험+기타","감자+손수건치자물들이기+차박팜핑체험+인성교육및활동+옥수수따기+알밤줍기+쑥개떡만들기+밤경단만들기+군밤+두부만들기+떡메치기(인절미만들기)+물놀이+꽃신만들기+고구마캐기","","","","충청남도 공주시 정안면 고성1길 250-34","임창빈","041-852-1255","2017-10-24","","충청남도 공주시청","36.591557","127.086973","2025-01-07","B552149","한국농어촌공사"
"2783","꽃뫼마을","충청남도","청양군","농작물경작체험+기타","냅킨공예+맥문동차마시기+맥문동화분심기+박쥐동굴체험+맥문동거심체험","","","","경기도 안성시 고삼면 이전봉산길 269","이춘복","041-943-8002","2017-10-24","","충청남도 청양군청","37.074195","127.286125","2025-01-07","B552149","한국농어촌공사"
"2785","꽃송아리마을","충청남도","서산시","농작물경작체험+만들기체험+전통문화체험","감자수확체험(kg)+유칼립투스꽃병꾸미기(소)+유칼립투스리스만들기+유칼립투스하바리움+추억의얼음썰매+팽이치기체험+제기만들기+정월대보름행사+재활용화분만들어모종심기(소)+재활용화분만들어모종심기+유칼립투스리스만들기(학생)+유칼립투스농부의하루+유칼립투스꽃병꾸미기+감자캐기체험(kg)+고구마캐기체험+대나무화분모종심기","","","","충청남도 서산시 팔봉면 한월당로 704","최기환","041-662-5783","2017-10-24","","충청남도 서산시청","36.808525","126.398554","2025-01-07","B552149","한국농어촌공사"
"2789","꾀꼴성마을","충청남도","아산시","농작물경작체험+만들기체험+기타","감자캐기체험+냅킨아트(에코백)+도예체험+레진아트+양봉체험+식사연계+시골밥상체험+손수건염색체험+서각체험+삼색칼국수만들기체험+민박체험+마을자원봉사+마스크스트랩만들기+탁본손수건만들기+카네이션볼펜만들기+철엽체험+천연비누만들기체험+젤리초만들기+이순신장군주먹밥만들기+연잎꽃차체험+양초체험+도토리묵체험+다도체험+낚시체험+고구마캐기체험+곡식문폐만들기+꽃볼펜만들기","","","","충청남도 아산시 음봉면 음봉로337번길 7-115","정현","041-546-2019","2017-10-24","","충청남도 아산시청","36.850284","127.045731","2025-01-07","B552149","한국농어촌공사"
"2799","남창마을","충청남도","천안시","농작물경작체험+자연생태체험","밤수확체험+솔향기걷기체험","","","","충청남도 천안시 서북구 성거읍 보명사길 27-1","유재홍","","2018-05-16","","충청남도 천안시청","36.863809","127.195828","2025-01-07","B552149","한국농어촌공사"
"2803","내이랑마을","충청남도","아산시","농작물경작체험+만들기체험+전통문화체험","가마솥두부만들기+토마토빙수만들기+수수부꾸미+수수도가니떡+사과효소만들기+사과따기+배청만들기+배따기체험+모종심기(토마토+블루베리)+떡메치기+대보름축제+토마토+오디비누만들기+체리따기+청국장만들기+유기농토마토따기+유기농대추방울토마토따기+오디효소만들기+오디쨈만들기+오디따기+아로니아따기+고추장만들기체험+김장하기+내이랑논학(모내기)+농경유물박물관+논학교(추수하기)+고구마캐기","","","","충청남도 아산시 영인면 신봉길 248","조혜정","041-544-4633","2017-10-24","","충청남도 아산시청","36.899697","126.996275","2025-01-07","B552149","한국농어촌공사"
"2815","노을지는갯마을","충청남도","태안군","농작물경작체험+만들기체험+기타","갯벌체험+마늘캐기+염색체험+염전체험+칠게잡이+봄화전부침체험+두부만들기","","","","충청남도 태안군 소원면 법산길 274-7","임하순","041-674-5842","2017-10-24","","충청남도 태안군청","36.741672","126.195602","2025-01-07","B552149","한국농어촌공사"
"2860","용경마을","충청남도","천안시","만들기체험+기타","요리만들기+천안호두건강음식조리체험+천안호두를이용한장류체험+호두와플만들기","","","","충청남도 천안시 동남구 광덕면 외보2길 67","정진풍","","2017-10-24","","충청남도 천안시청","36.6860104","127.0855077","2025-01-07","B552149","한국농어촌공사"
"2868","용봉산돌바위마을","충청남도","홍성군","기타+전통문화체험+만들기체험","고구마맛탕만들기체험+천연염색체험+이응노마을문화예술잔치+방울토마토따기체험+목공예체험+마을해설안내+딸기청만들기체험+딸기따기체험+도자기공예체험+고구마캐기체험","","","","충청남도 홍성군 홍북읍 이응노로 307","전상진","041-635-1470","2017-10-24","","충청남도 홍성군청","36.6314193","126.653511","2025-01-07","B552149","한국농어촌공사"
"2872","오서산산촌생태마을","충청남도","보령시","기타","고추따기체험+매실따기체험+산채취체험+밤줍기체험+두부만들기체험","","","","충청남도 보령시 청소면 넙티로 513-6","이남경","041-933-6882","2017-10-24","","충청남도 보령시청","36.44614379","126.641031","2025-01-07","B552149","한국농어촌공사"
"2873","오서산상담마을","충청남도","홍성군","만들기체험+건강+자연생태체험","농산물천연비누만들기+들꽃액자만들기+오서산밀뚝제비만들기+오서산치유정원원예치료+자연물공예체험+천연버물리연고만들기체험+편백미스트만들기+천연향초만들기체험+천연모기퇴치제만들기+오서산콩치유인형만들기+오서산치유음식체험+봄꽃천연비누만들기체험","","","","충청남도 홍성군 광천읍 오서길351번길 16","허인숙","041-642-0709","2017-10-24","","충청남도 홍성군청","36.4815009","126.6388126","2025-01-07","B552149","한국농어촌공사"
"2886","왕대골마을","충청남도","홍성군","기타+전통문화체험","겨울얼음축제+여름물놀이축제+음식체험+전통놀이체험+주말농장+장승만들기체험+연꽃축제+전통음식체험+서바이벌사격장+깡통열차체험+대나무공작체험","","","","충청남도 홍성군 구항면 구항길240번길 21","윤은선","","2017-10-24","","충청남도 홍성군청","36.5830161","126.6240259","2025-01-07","B552149","한국농어촌공사"
"2898","예울림물레방아마을","충청남도","공주시","기타+만들기체험+전통문화체험","가면만들기+꽃짚신만들기+밤줍기및두부만들기+숙박+윷놀이+해바라기그리기(캔버스)+인절미만들기+예절교육+설매타기+눈사람만들기+민화채색(족자만들기)+꽃물들이기+고무신만들기","","","","충청남도 공주시 우성면 무재길 23-6","유재홍","041-852-5530","2017-10-24","","충청남도 공주시청","36.4665631","126.9867484","2025-01-07","B552149","한국농어촌공사"
"2899","예하지마을","충청남도","공주시","농작물경작체험+자연생태체험+만들기체험+전통문화체험","고구마캐러가자+진로체험(공주시)+제철밥상체험+워크숍장이용+워크숍+예하지전통두부만들기+예하지마을인절미체험+알밤줍기+아로니아효소만들기+솟대와장승그게뭐야+황토방숙박+한옥방숙소이용+하지감자캐기+추석맞이송편만들기+체험관이용+체험관숙소이용+찾아가는농촌체험+집터다지기체험+서당골학동체험+북치고장구치고+백제문화제+무지개인절미체험+무지개다식만들기+모내기체험+마을학교체험+마을돌봄+김장축제+김장하고수육먹고+농산물판매+마을광장이용+마을가꾸기박람회새총체험+김장체험","","","","충청남도 공주시 의당면 서당길 72","전용주","","2017-10-24","","충청남도 공주시청","36.54969788","127.1405758","2025-01-07","B552149","한국농어촌공사"
"2902","오누이마을","충청남도","홍성군","농작물경작체험+만들기체험","견학+목공체험+숙박+대관+농사체험+누에체험+단순방문객","","","","충청남도 홍성군 장곡면 홍장남로101번길 48","임응철","041-642-9990","2017-10-24","","충청남도 홍성군청","36.50953531","126.6986429","2025-01-07","B552149","한국농어촌공사"
"2903","오돌개마을","충청남도","아산시","농작물경작체험+만들기체험+기타","농산물수확체험+향기품은송화소금+펜션+키피박화분만들기+커피박화분만들기+커피박주방비누만들기+커피박버블버블샴푸바+커피박가방고리+체험키트(키트패키지)+체험키트(캔화분)+체험키트(세하가체험)+체험관+자원재활용체험(플라아트체험)+자원재활용체험(캔화분)+벌레야물러가랏+순환자원캔아트체험+순환자원특강수업+엄마아빠우리체험가요셋트+양파랑친구하자+대파랑야채랑놀자","","","","충청남도 아산시 송악면 송악로 112","정윤철","","2017-10-24","","충청남도 아산시청","36.71006315","126.9566663","2025-01-07","B552149","한국농어촌공사"
"2907","어무실구정승마을","충청남도","공주시","농작물경작체험+만들기체험+자연생태체험+기타","감자수확체험+김장체험+불고기전골체험+산채수확체험+숙박체험+음식체험+전통농경문화체험+전래벼베기및수확체험+알밤줍기체험+수생생물생태체험+뻥튀기한과체험+바베큐체험+김밥체험","","","","충청남도 공주시 정안면 어물음지말길 1","진수송","","2017-10-24","","충청남도 공주시청","36.60187775","127.1444937","2025-01-07","B552149","한국농어촌공사"
